[
    {
        "name": "Psychology Building", 
        "latitude": -31.9817463,
        "longitude": 115.8191758,
        "department": "Psychology"
    },
    {
        "name": "Octagon Theatre", 
        "latitude":  -31.9770931,
        "longitude": 115.8194362,
        "department": "Other"
    },
    {
        "name": "Mathematics Building", 
        "latitude": -31.9793796,
        "longitude": 115.8168109,
        "department": "Mathematics"
    },
    {
        "name": "Barry J Marshal Library", 
        "latitude":  -31.9825137,
        "longitude": 115.8186596,
        "department": "Other"
    },
    {
        "name": "Bilya Marlee Building", 
        "latitude": -31.9828759, 
        "longitude": 115.8203575,
        "department": "Indegenous Studies"
    }
]